,City,Cloudiness,Country,Date,Humidity,Lat,Lng,Max temp,Wind speed
0,puerto ayora,broken clouds,EC,1567436151,78,-0.74,-90.35,23.0,5.7
1,mataura,broken clouds,NZ,1567436151,88,-46.19,168.86,7.78,1.34
2,hithadhoo,overcast clouds,MV,1567436151,76,-0.6,73.08,28.53,4.75
3,ushuaia,shower rain,AR,1567436151,93,-54.81,-68.31,4.0,12.9
4,portland,moderate rain,US,1567435862,77,43.66,-70.25,21.11,5.7
5,butaritari,scattered clouds,KI,1567436151,73,3.07,172.79,29.23,3.55
6,rikitea,light rain,PF,1567436152,88,-23.12,-134.97,21.93,7.13
7,busselton,few clouds,AU,1567436152,52,-33.64,115.35,13.33,12.28
8,bluff,clear sky,AU,1567436152,33,-23.58,149.07,16.33,2.65
9,ponta do sol,scattered clouds,BR,1567436152,37,-20.63,-46.0,29.83,1.47
10,oriximina,clear sky,BR,1567436152,43,-1.77,-55.87,33.63,2.32
11,saint george,few clouds,GR,1567436152,42,39.45,22.34,33.0,6.2
12,adre,light rain,TD,1567436153,69,13.47,22.2,25.43,5.36
13,half moon bay,mist,US,1567436153,100,37.46,-122.43,18.33,3.1
14,atuona,few clouds,PF,1567436153,74,-9.8,-139.03,25.33,6.8
15,palmer,clear sky,AU,1567436153,82,-34.85,139.16,13.33,3.6
16,hualmay,clear sky,PE,1567436153,89,-11.1,-77.61,15.53,4.58
17,vanavara,scattered clouds,RU,1567436153,86,60.35,102.28,8.83,2.01
18,chuy,scattered clouds,UY,1567436153,51,-33.69,-53.46,11.53,2.96
19,albany,light rain,US,1567436154,82,42.65,-73.75,19.44,4.1
20,jamestown,clear sky,AU,1567436154,65,-33.21,138.6,12.03,2.72
21,cayenne,few clouds,GF,1567436154,62,4.94,-52.33,31.0,1.5
22,sawtell,clear sky,AU,1567436154,76,-30.38,153.1,14.0,2.6
23,la ronge,overcast clouds,CA,1567436154,81,55.1,-105.3,12.0,3.1
24,kavieng,few clouds,PG,1567436154,77,-2.57,150.8,27.53,4.78
25,ostrovnoy,clear sky,RU,1567436154,74,68.05,39.51,18.53,6.41
26,sozimskiy,scattered clouds,RU,1567436155,76,59.74,52.25,11.23,2.63
27,castro,few clouds,CL,1567436155,81,-42.48,-73.76,6.0,4.1
28,clyde river,overcast clouds,CA,1567436155,86,70.47,-68.59,5.0,6.7
29,port augusta,clear sky,AU,1567436155,54,-32.49,137.76,15.0,3.6
30,alberdi,clear sky,AR,1567436155,45,-26.19,-58.14,18.0,4.6
31,sola,broken clouds,TZ,1567436155,30,-3.17,33.8,30.33,3.41
32,lebu,light rain,ET,1567436155,83,8.96,38.73,17.13,1.75
33,tumut,broken clouds,AU,1567436156,88,-35.3,148.22,6.53,1.66
34,ust-maya,clear sky,RU,1567436156,90,60.42,134.54,7.83,0.78
35,mayo,smoke,CA,1567436013,81,63.59,-135.9,6.0,1.5
36,vao,clear sky,EE,1567436156,59,59.1,26.19,23.73,3.21
37,lata,light rain,IN,1567436156,94,30.78,78.62,8.53,0.4
38,fortuna,overcast clouds,US,1567436156,100,40.6,-124.16,15.0,5.75
39,tasiilaq,broken clouds,GL,1567436156,57,65.61,-37.64,9.0,4.6
40,yuzhno-kurilsk,clear sky,RU,1567436156,73,44.03,145.86,18.93,3.89
41,east london,clear sky,ZA,1567436156,60,-33.02,27.91,20.0,8.2
42,victoria,broken clouds,BN,1567436093,83,5.28,115.24,28.0,1.0
43,fort nelson,fog,CA,1567436157,100,58.81,-122.69,8.0,0.35
44,takoradi,light rain,GH,1567436157,79,4.89,-1.75,26.43,5.14
45,hamilton,broken clouds,CA,1567436038,72,43.26,-79.87,21.67,3.6
46,tambacounda,light rain,SN,1567436157,70,13.77,-13.67,30.0,2.1
47,tabas,clear sky,IR,1567436157,12,33.6,56.92,39.0,2.01
48,hermanus,clear sky,ZA,1567436157,73,-34.42,19.24,18.89,2.24
49,dikson,overcast clouds,RU,1567436157,84,73.51,80.55,5.33,6.61
50,petropavlovsk-kamchatskiy,overcast clouds,RU,1567436158,100,53.05,158.65,11.0,2.0
51,georgetown,scattered clouds,GY,1567436096,66,6.8,-58.16,31.0,4.1
52,port alfred,clear sky,ZA,1567436158,78,-33.59,26.89,18.33,2.68
53,sao filipe,light rain,CV,1567436158,82,14.9,-24.5,27.43,8.58
54,sitka,clear sky,US,1567436158,81,37.17,-99.65,25.0,4.92
55,bahar,clear sky,IR,1567436158,10,34.91,48.44,31.0,6.2
56,upernavik,clear sky,GL,1567436158,62,72.79,-56.15,5.33,2.88
57,punta arenas,scattered clouds,CL,1567436158,60,-53.16,-70.91,6.0,5.7
58,leshukonskoye,broken clouds,RU,1567436159,70,64.9,45.76,15.73,1.31
59,hobyo,broken clouds,SO,1567436159,71,5.35,48.53,25.23,13.08
60,acapulco,scattered clouds,MX,1567436159,83,16.86,-99.88,28.0,1.5
61,lae,overcast clouds,PG,1567436159,95,-6.72,146.98,21.23,0.35
62,dali,clear sky,CN,1567436159,39,34.79,109.94,21.73,3.2
63,dezhou,clear sky,CN,1567436159,57,37.45,116.31,21.83,2.71
64,coihaique,fog,CL,1567436071,86,-45.58,-72.07,2.0,0.06
65,muli,broken clouds,CN,1567436159,90,28.08,109.56,19.03,1.88
66,barranca,clear sky,PE,1567436159,89,-10.75,-77.76,15.53,4.58
67,pangnirtung,fog,CA,1567436160,100,66.15,-65.72,7.0,2.6
68,bredasdorp,clear sky,ZA,1567436160,52,-34.53,20.04,18.33,4.1
69,vaini,light rain,IN,1567436160,94,15.34,74.49,22.0,3.1
70,tuktoyaktuk,broken clouds,CA,1567436160,80,69.44,-133.03,1.0,7.7
71,hofn,few clouds,IS,1567436160,43,64.25,-15.21,13.0,9.3
72,kapaa,scattered clouds,US,1567435873,78,22.08,-159.32,27.0,6.2
73,avarua,overcast clouds,CK,1567436160,64,-21.21,-159.78,20.0,2.6
74,hobart,clear sky,AU,1567436117,87,-42.88,147.33,9.44,1.5
75,namatanai,light rain,PG,1567436160,86,-3.66,152.44,26.03,7.62
76,beringovskiy,light rain,RU,1567436161,96,63.05,179.32,6.63,2.77
77,souillac,clear sky,FR,1567436161,33,45.6,-0.6,25.0,4.1
78,svetlogorsk,overcast clouds,RU,1567436161,66,53.14,59.15,10.0,6.0
79,itarema,overcast clouds,BR,1567436161,48,-2.92,-39.92,31.93,5.16
80,pemba,few clouds,MZ,1567436161,78,-12.97,40.52,26.0,6.2
81,klaksvik,few clouds,FO,1567436161,66,62.23,-6.59,11.0,3.1
82,yerofey pavlovich,clear sky,RU,1567436161,96,53.97,121.97,8.93,0.65
83,isangel,light rain,VU,1567436162,87,-19.55,169.27,24.63,1.71
84,okha,light rain,RU,1567436162,94,53.59,142.95,12.23,7.52
85,airai,scattered clouds,TL,1567436162,69,-8.93,125.41,18.53,1.95
86,qasigiannguit,broken clouds,GL,1567436025,77,68.82,-51.19,6.0,2.6
87,udachnyy,overcast clouds,RU,1567436162,75,66.42,112.4,5.0,2.0
88,torbay,broken clouds,CA,1567436129,59,47.66,-52.73,18.33,6.2
89,kijang,light rain,KR,1567436162,94,35.24,129.21,22.0,0.5
90,moerai,light rain,PF,1567436162,66,-22.43,-151.33,19.83,4.59
91,port elizabeth,light rain,US,1567436162,69,39.31,-74.98,28.33,5.7
92,bathsheba,scattered clouds,BB,1567436163,70,13.22,-59.52,31.0,6.2
93,macas,fog,EC,1567436163,88,-2.3,-78.12,21.0,1.0
94,luba,moderate rain,PH,1567436163,91,17.32,120.7,24.63,2.54
95,cherskiy,scattered clouds,RU,1567436163,70,68.75,161.3,2.13,2.39
96,sao joao da barra,clear sky,BR,1567436163,54,-21.64,-41.05,28.0,1.66
97,zaraza,overcast clouds,VE,1567436163,74,9.35,-65.33,28.43,2.34
98,sanjwal,clear sky,PK,1567436163,70,33.76,72.43,30.56,2.6
99,willowmore,clear sky,ZA,1567436164,28,-33.3,23.49,18.83,3.22
100,hilo,heavy intensity rain,US,1567436164,83,19.71,-155.08,23.33,2.1
101,poso,overcast clouds,ID,1567436164,95,-1.4,120.75,15.93,1.42
102,arraial do cabo,clear sky,BR,1567436164,78,-22.97,-42.02,24.0,3.1
103,severo-kurilsk,overcast clouds,RU,1567436164,97,50.68,156.12,10.03,4.49
104,cape town,clear sky,ZA,1567435973,63,-33.93,18.42,18.89,4.6
105,monchegorsk,scattered clouds,RU,1567436164,67,67.94,32.93,17.63,6.14
106,sorong,broken clouds,ID,1567436164,91,-0.86,131.25,22.73,3.27
107,port hedland,clear sky,AU,1567436165,88,-20.31,118.58,19.0,1.5
108,semey,overcast clouds,KZ,1567436165,37,50.41,80.25,18.13,4.37
109,alyangula,scattered clouds,AU,1567436165,93,-13.85,136.42,19.0,1.67
110,mogadishu,broken clouds,SO,1567436165,69,2.04,45.34,27.0,8.7
111,bambous virieux,broken clouds,MU,1567436104,69,-20.34,57.76,23.33,4.1
112,strezhevoy,clear sky,RU,1567436165,87,60.73,77.6,12.0,2.0
113,yaan,few clouds,NG,1567436165,71,7.38,8.57,29.13,1.84
114,thompson,broken clouds,CA,1567436165,100,55.74,-97.86,2.0,1.5
115,canon city,clear sky,US,1567436166,41,39.46,-117.13,6.0,1.07
116,port hardy,mist,CA,1567436166,100,50.7,-127.42,13.0,1.0
117,hasaki,light intensity shower rain,JP,1567436166,88,35.73,140.83,25.0,3.1
118,taoudenni,clear sky,ML,1567436166,14,22.68,-3.98,42.33,1.74
119,kamennomostskiy,clear sky,RU,1567436166,36,44.29,40.18,25.23,2.64
120,kaitangata,broken clouds,NZ,1567436166,82,-46.28,169.85,6.67,0.89
121,lavrentiya,moderate rain,RU,1567436166,97,65.58,-170.99,7.23,6.4
122,kodiak,clear sky,US,1567436166,83,39.95,-94.76,23.89,2.1
123,saint-augustin,overcast clouds,CA,1567436167,88,45.63,-73.98,18.33,1.0
124,nizwa,clear sky,OM,1567436167,15,22.93,57.53,34.93,4.29
125,thongwa,light intensity drizzle,MM,1567436167,100,16.76,96.52,24.0,1.0
126,mahebourg,broken clouds,MU,1567436167,69,-20.41,57.7,23.33,4.1
127,mar del plata,few clouds,AR,1567436167,49,-46.43,-67.52,3.03,11.71
128,kumluca,clear sky,TR,1567436167,40,36.37,30.29,23.93,2.89
129,vardo,scattered clouds,US,1567436167,78,39.62,-77.74,25.0,5.7
130,corrente,overcast clouds,BR,1567436168,21,-17.45,-44.68,34.73,2.21
131,kaeo,light rain,NZ,1567436168,100,-35.1,173.78,14.44,6.93
132,gweta,clear sky,BW,1567436168,11,-20.21,25.26,27.83,2.9
133,ginir,light rain,ET,1567436168,72,7.14,40.71,20.03,1.8
134,barrow,light rain,AR,1567436168,49,-38.31,-60.23,8.03,8.38
135,constitucion,few clouds,MX,1567436168,100,23.99,-104.67,17.78,1.0
136,merauke,clear sky,ID,1567436168,78,-8.49,140.4,24.03,10.58
137,yellowknife,light rain,CA,1567436169,93,62.45,-114.38,7.0,2.6
138,pevek,overcast clouds,RU,1567436169,78,69.7,170.27,3.03,0.87
139,saint-philippe,moderate rain,CA,1567436169,93,45.36,-73.48,18.33,2.6
140,boquira,broken clouds,BR,1567436169,15,-12.82,-42.73,38.63,0.83
141,bournemouth,broken clouds,GB,1567435958,63,50.72,-1.88,20.0,6.7
142,san carlos de bariloche,clear sky,AR,1567436169,34,-41.13,-71.31,2.0,4.1
143,mandera,few clouds,ET,1567436169,31,3.94,41.86,34.33,7.84
144,san patricio,clear sky,PY,1567436169,45,-26.98,-56.83,18.43,2.74
145,ribeira grande,broken clouds,PT,1567436169,69,38.52,-28.7,24.0,4.1
146,new norfolk,clear sky,AU,1567436170,87,-42.78,147.06,9.44,1.5
147,alvaraes,few clouds,BR,1567436170,74,-3.22,-64.8,30.0,2.6
148,bilma,broken clouds,NE,1567436170,13,18.69,12.92,39.43,3.63
149,tiksi,light rain,RU,1567436170,94,71.64,128.87,4.53,4.43
150,kampene,light rain,CD,1567436170,61,-3.59,26.67,29.63,0.77
151,port lincoln,clear sky,AU,1567436170,83,-34.72,135.86,13.93,3.95
152,san quintin,moderate rain,PH,1567436170,91,17.54,120.52,24.63,2.54
153,saskylakh,clear sky,RU,1567436170,87,71.97,114.09,-0.98,1.0
154,paragominas,clear sky,BR,1567436171,46,-3.0,-47.35,33.23,2.57
155,provideniya,light rain,RU,1567436171,92,64.42,-173.23,8.23,7.75
156,kahului,broken clouds,US,1567436171,100,20.89,-156.47,26.0,4.1
157,khatanga,clear sky,RU,1567436171,74,71.98,102.47,6.33,3.27
158,pangkalanbuun,overcast clouds,ID,1567436171,87,-2.68,111.62,23.53,1.44
159,gairo,scattered clouds,TZ,1567436171,43,-6.14,36.87,24.73,5.21
160,xiongzhou,light rain,CN,1567436171,94,32.34,118.83,21.11,2.0
161,ancud,few clouds,CL,1567436172,81,-41.87,-73.83,6.0,4.1
162,dongying,clear sky,CN,1567436172,53,37.43,118.67,24.23,3.78
163,husavik,clear sky,CA,1567436172,74,50.56,-96.99,13.33,1.34
164,rocha,clear sky,UY,1567436172,52,-34.48,-54.34,11.63,4.42
165,manta,scattered clouds,RO,1567436172,21,45.1,24.1,29.93,3.15
166,talnakh,clear sky,RU,1567436172,87,69.49,88.39,9.0,5.0
167,zernograd,clear sky,RU,1567436172,19,46.84,40.3,27.83,2.27
168,dingle,overcast clouds,PH,1567436173,89,11.0,122.67,23.13,2.18
169,george,clear sky,MW,1567436173,40,-15.35,34.83,26.83,4.46
170,moron,overcast clouds,HT,1567436173,67,18.56,-74.26,29.13,0.7
171,necochea,light rain,AR,1567436173,81,-38.55,-58.74,5.56,3.13
172,springbok,clear sky,ZA,1567436173,10,-29.67,17.88,30.63,0.69
173,baherden,clear sky,TM,1567436173,21,38.44,57.43,22.63,3.14
174,uruzgan,clear sky,AF,1567436173,19,32.93,66.63,14.93,1.79
175,requena,few clouds,ES,1567436173,65,39.49,-1.1,29.44,3.6
176,touros,broken clouds,BR,1567435985,69,-5.2,-35.46,28.0,6.2
177,ovsyanka,overcast clouds,RU,1567436174,69,53.58,126.91,13.13,0.61
178,tiznit,overcast clouds,MA,1567436174,91,29.7,-9.73,19.63,3.31
179,mao,scattered clouds,DO,1567435988,74,19.55,-71.08,33.33,5.1
180,harper,clear sky,US,1567436174,69,30.3,-99.24,27.22,2.1
181,qaanaaq,clear sky,GL,1567436174,47,77.48,-69.36,3.43,2.69
182,kodinsk,clear sky,RU,1567436174,86,58.6,99.18,9.13,1.3
183,paraiso,scattered clouds,BR,1567436174,66,-0.03,-51.17,32.0,5.1
184,eyl,clear sky,SO,1567436174,66,7.98,49.82,26.23,10.88
185,angoche,few clouds,MZ,1567436175,72,-16.23,39.91,24.63,3.52
186,nikolskoye,scattered clouds,RU,1567436175,47,59.7,30.79,25.0,5.0
187,babushkin,overcast clouds,RU,1567436175,86,51.72,105.86,13.23,5.94
188,tilichiki,clear sky,RU,1567436175,91,60.47,166.1,3.33,2.82
189,saint anthony,clear sky,US,1567436175,62,43.97,-111.68,18.33,1.5
190,kargil,few clouds,PK,1567436081,44,34.56,76.13,14.93,4.24
191,cameron park,clear sky,US,1567436175,56,38.68,-120.99,24.0,3.1
192,tabuk,light rain,PH,1567436175,98,17.41,121.44,18.43,0.79
193,katsuura,few clouds,JP,1567436176,83,33.93,134.5,26.0,4.1
194,honiara,few clouds,SB,1567436176,100,-9.43,159.96,24.0,2.93
195,samarai,light rain,PG,1567436176,88,-10.62,150.67,21.13,2.94
196,san ignacio,scattered clouds,PE,1567436176,49,-5.15,-79.0,25.73,0.42
197,kerugoya,moderate rain,KE,1567436176,88,-0.5,37.28,18.03,1.65
198,aitape,light rain,PG,1567436176,90,-3.15,142.36,25.03,2.67
199,gorontalo,broken clouds,ID,1567436177,86,0.54,123.06,20.73,1.89
200,egvekinot,light rain,RU,1567436177,93,66.32,-179.17,2.53,10.91
201,tibiri,broken clouds,NE,1567436177,35,13.57,7.05,34.63,2.66
202,kruisfontein,clear sky,ZA,1567436177,70,-34.0,24.73,15.13,4.34
203,tome,overcast clouds,JP,1567436177,97,38.69,141.2,17.33,0.61
204,chokurdakh,clear sky,RU,1567436177,66,70.62,147.9,4.13,1.97
205,nanortalik,light rain,GL,1567436177,95,60.14,-45.24,6.23,0.69
206,biak,overcast clouds,ID,1567436178,67,-0.91,122.88,13.63,2.14
207,banga,overcast clouds,PH,1567436178,79,11.64,122.33,26.63,5.84
208,lagoa,clear sky,PT,1567436178,54,37.14,-8.45,29.44,3.1
209,wufeng,overcast clouds,CN,1567436178,98,27.44,104.87,14.53,0.69
210,longyearbyen,broken clouds,NO,1567436178,70,78.22,15.63,6.0,9.8
211,cabra,clear sky,ES,1567436178,18,37.47,-4.43,38.0,4.6
212,caravelas,overcast clouds,BR,1567436178,67,-17.73,-39.27,26.83,4.17
213,sept-iles,overcast clouds,CA,1567436179,76,50.2,-66.38,14.0,3.1
214,rundu,clear sky,NA,1567436179,4,-17.91,19.77,32.0,2.6
215,bandarbeyla,few clouds,SO,1567436179,63,9.49,50.81,27.53,12.3
216,loudi,broken clouds,CN,1567436179,85,27.73,112.0,18.63,1.6
217,pisco,mist,PE,1567436179,30,-13.71,-76.2,22.0,1.5
218,derzhavinsk,broken clouds,KZ,1567436179,53,51.1,66.31,12.53,3.21
219,primo tapia,fog,MX,1567436179,94,32.22,-116.92,22.78,1.15
220,teramo,clear sky,IT,1567436180,61,42.66,13.7,28.89,4.6
221,elizabeth city,haze,US,1567436180,88,36.3,-76.22,28.33,2.09
222,mantua,clear sky,IT,1567436180,57,45.16,10.79,29.0,1.5
223,arlit,clear sky,NE,1567436180,20,18.74,7.39,38.73,2.86
224,carnarvon,clear sky,ZA,1567436180,9,-30.97,22.13,22.13,2.91
225,yar-sale,broken clouds,RU,1567436180,73,66.83,70.83,10.73,4.31
226,teeli,light rain,RU,1567436180,73,51.01,90.2,10.73,1.67
227,kloulklubed,overcast clouds,PW,1567436181,94,7.04,134.26,26.0,2.1
228,porto novo,broken clouds,BR,1567436181,68,-23.68,-45.44,22.0,1.0
229,bethanien,overcast clouds,NA,1567436181,5,-26.5,17.16,26.73,5.76
230,roald,shower rain,NO,1567436181,58,62.58,6.12,15.56,7.2
231,chimore,clear sky,BO,1567436181,26,-16.98,-65.13,26.83,2.04
232,innisfail,overcast clouds,AU,1567436181,81,-17.52,146.03,15.73,2.13
233,norman wells,overcast clouds,CA,1567436182,93,65.28,-126.83,4.0,1.5
234,bonthe,light rain,SL,1567436182,76,7.53,-12.5,27.83,5.01
235,kurunegala,scattered clouds,LK,1567436182,83,7.49,80.36,28.0,5.7
236,tezu,light rain,IN,1567436182,68,27.93,96.16,26.93,1.75
237,pundaguitan,light rain,PH,1567436182,85,6.37,126.17,27.43,6.23
238,kolpashevo,overcast clouds,RU,1567436182,82,58.31,82.9,8.83,2.56
239,buala,light rain,SB,1567436182,81,-8.15,159.59,26.63,2.07
240,ust-kalmanka,overcast clouds,RU,1567436183,46,52.12,83.31,14.63,3.98
241,lafayette,scattered clouds,US,1567436183,83,30.22,-92.02,28.89,3.6
242,kavaratti,light rain,IN,1567436183,80,10.57,72.64,28.13,5.62
243,port macquarie,clear sky,AU,1567436183,82,-31.43,152.91,13.0,2.6
244,tabora,broken clouds,TZ,1567436183,42,-5.02,32.81,26.63,2.95
245,ahipara,light rain,NZ,1567436183,100,-35.17,173.16,13.89,9.09
246,kayerkan,clear sky,RU,1567436183,87,69.35,87.76,9.0,5.0
247,mount isa,clear sky,AU,1567436184,28,-20.73,139.49,13.0,4.29
248,namibe,clear sky,AO,1567436184,73,-15.19,12.15,21.0,5.7
249,mae hong son,overcast clouds,MM,1567436184,97,19.3,97.96,21.33,1.25
250,joyabaj,scattered clouds,GT,1567436184,68,14.99,-90.8,21.0,2.1
251,alice springs,clear sky,AU,1567436184,14,-23.7,133.88,15.0,1.0
252,pontes e lacerda,clear sky,BR,1567436184,35,-15.23,-59.33,31.43,2.6
253,oranjemund,clear sky,ZA,1567436006,57,-28.55,16.43,17.03,11.66
254,iqaluit,broken clouds,CA,1567436184,100,63.75,-68.52,3.89,2.6
255,leningradskiy,overcast clouds,RU,1567436184,94,69.38,178.42,1.83,8.87
256,bereda,clear sky,ES,1567436185,54,43.27,-7.54,22.78,7.6
257,plouzane,broken clouds,FR,1567436185,63,48.38,-4.62,20.0,4.1
258,cidreira,clear sky,BR,1567436185,48,-30.17,-50.22,17.43,1.29
259,garowe,broken clouds,SO,1567436185,35,8.41,48.48,32.93,6.03
260,swellendam,clear sky,ZA,1567436185,52,-34.02,20.44,18.0,4.1
261,goderich,broken clouds,CA,1567436185,81,43.74,-81.71,20.56,4.47
262,faanui,overcast clouds,PF,1567436185,77,-16.48,-151.75,24.43,8.57
263,hun,clear sky,BE,1567436186,32,50.34,4.87,22.78,3.1
264,lakes entrance,overcast clouds,AU,1567436186,94,-37.88,147.99,8.33,1.42
265,nishihara,broken clouds,JP,1567436186,88,35.74,139.53,28.89,2.6
266,aksha,light rain,RU,1567436186,92,50.28,113.29,14.53,2.05
267,filingue,broken clouds,NE,1567436186,30,14.35,3.32,36.73,4.8
268,watsa,moderate rain,CD,1567436186,93,3.04,29.53,23.13,1.85
269,camacha,scattered clouds,PT,1567436186,64,33.08,-16.33,23.0,6.2
270,sainte-maxime,light rain,FR,1567436186,62,43.31,6.64,31.0,5.1
271,ouahigouya,broken clouds,BF,1567436187,49,13.58,-2.42,32.23,2.06
272,bela vista,clear sky,BR,1567436187,32,-22.11,-56.53,29.83,1.22
273,litovko,clear sky,RU,1567436187,96,49.24,135.18,10.23,0.88
274,davila,moderate rain,PH,1567436187,78,18.47,120.58,28.03,5.72
275,muisne,broken clouds,EC,1567436187,88,0.61,-80.02,24.0,4.1
276,komsomolskiy,overcast clouds,RU,1567436187,76,67.55,63.78,9.13,3.3
277,ulaangom,scattered clouds,MN,1567436187,46,49.98,92.07,17.63,3.51
278,tsumeb,clear sky,NA,1567436188,4,-19.25,17.72,29.0,3.1
279,beidao,clear sky,CN,1567436188,81,34.57,105.89,13.23,2.86
280,fairbanks,clear sky,US,1567436188,71,64.84,-147.72,13.0,3.1
281,cabo san lucas,clear sky,MX,1567435964,78,22.89,-109.91,28.33,0.55
282,sabang,overcast clouds,PH,1567436188,81,13.8,121.11,26.67,0.45
283,yeroham,clear sky,IL,1567436188,52,30.99,34.93,28.03,7.47
284,bethel,light rain,US,1567436188,93,60.79,-161.76,13.0,8.7
285,banjar,overcast clouds,ID,1567436189,84,-7.37,108.54,22.13,1.04
286,muros,clear sky,ES,1567436189,53,42.77,-9.06,31.0,4.6
287,chicama,mist,PE,1567436189,88,-7.84,-79.15,17.0,3.6
288,port blair,mist,IN,1567436124,88,11.67,92.75,28.0,6.2
289,svetlaya,clear sky,RU,1567436189,88,46.54,138.33,9.53,2.59
290,comodoro rivadavia,scattered clouds,AR,1567436189,52,-45.87,-67.48,5.0,7.7
291,banjarmasin,broken clouds,ID,1567436189,84,-3.32,114.59,23.93,3.24
292,narsaq,broken clouds,GL,1567436189,87,60.91,-46.05,8.0,1.5
293,yulara,clear sky,AU,1567436190,14,-25.24,130.99,14.0,2.1
294,srednekolymsk,clear sky,RU,1567436190,68,67.46,153.71,3.53,0.87
295,tsabong,few clouds,BW,1567436190,4,-26.02,22.4,26.83,2.22
296,estelle,clear sky,FR,1567436190,27,43.97,3.47,31.0,6.2
297,koekelare,few clouds,BE,1567436190,55,51.09,2.98,23.33,7.7
298,meulaboh,light rain,ID,1567436190,77,4.14,96.13,28.03,1.38
299,kalmunai,overcast clouds,LK,1567436190,63,7.42,81.82,26.93,0.86
300,sagar,light rain,IN,1567436190,90,23.84,78.75,25.93,2.63
301,dmytrivka,clear sky,UA,1567436191,32,50.46,30.17,29.0,1.0
302,oranjestad,scattered clouds,AW,1567435900,70,12.52,-70.03,31.0,9.8
303,san cristobal,few clouds,HN,1567436191,62,14.68,-86.92,27.13,1.18
304,xacmaz,broken clouds,AZ,1567436191,68,41.46,48.81,18.63,3.0
305,kassala,clear sky,SD,1567436191,28,15.45,36.38,37.33,3.08
306,alekseyevskoye,clear sky,RU,1567436191,24,45.2,43.58,26.33,2.53
307,port-cartier,overcast clouds,CA,1567436191,76,50.03,-66.88,14.0,3.1
308,melun,clear sky,FR,1567436191,33,48.54,2.66,23.89,2.6
309,xiongyue,clear sky,CN,1567436192,80,40.18,122.12,23.43,7.97
310,maniitsoq,light rain,GL,1567436192,92,65.42,-52.9,5.53,11.11
311,ust-barguzin,broken clouds,RU,1567436192,92,53.41,109.03,11.63,0.38
312,kenai,moderate rain,US,1567436192,87,60.55,-151.26,12.0,2.6
313,cajamarca,clear sky,PE,1567436192,45,-7.16,-78.52,17.0,2.6
314,sale,broken clouds,AU,1567436192,93,-38.11,147.06,10.56,0.45
315,tanout,broken clouds,NE,1567436192,27,14.97,8.88,35.83,0.82
316,ilulissat,broken clouds,GL,1567436193,68,69.22,-51.1,6.0,2.6
317,ratnagiri,moderate rain,IN,1567436193,80,16.98,73.3,27.93,6.79
318,novyy urengoy,overcast clouds,RU,1567436193,74,66.08,76.63,11.53,4.96
319,les cayes,overcast clouds,HT,1567436193,75,18.19,-73.75,29.03,6.23
320,mendota,clear sky,US,1567436193,50,36.75,-120.38,25.0,2.67
321,spornoye,clear sky,RU,1567436193,32,50.84,37.29,27.0,3.0
322,nouadhibou,overcast clouds,MR,1567436194,58,20.93,-17.03,30.0,4.1
323,mizdah,clear sky,LY,1567436194,17,31.45,12.98,34.53,6.51
324,mahon,broken clouds,IE,1567436194,67,51.89,-8.4,17.0,6.2
325,haines junction,overcast clouds,CA,1567436194,93,60.75,-137.51,2.33,2.04
326,lorengau,overcast clouds,PG,1567436194,88,-2.02,147.27,25.13,3.72
327,kargat,scattered clouds,RU,1567436194,62,55.19,80.28,11.93,4.71
328,son la,clear sky,VN,1567436194,88,21.32,103.9,19.83,0.64
329,baykit,scattered clouds,RU,1567436195,96,61.68,96.39,6.23,2.35
330,vigo,clear sky,ES,1567436195,38,42.24,-8.72,31.0,3.1
331,zarand,clear sky,IR,1567436195,5,30.81,56.57,32.0,5.1
332,esperance,overcast clouds,AU,1567436195,55,-33.86,121.89,16.0,7.2
333,brae,few clouds,GB,1567436195,82,60.4,-1.35,13.0,7.2
334,saryg-sep,light rain,RU,1567436195,88,51.49,95.55,13.53,1.2
335,guadalajara,few clouds,ES,1567436176,33,40.63,-3.16,32.22,1.5
336,karlstad,scattered clouds,SE,1567436195,87,59.38,13.5,16.11,3.1
337,meiganga,moderate rain,CM,1567436196,93,6.52,14.29,22.43,0.64
338,rio grande,clear sky,BR,1567436196,47,-32.03,-52.1,15.0,2.71
339,dharmadam,light rain,IN,1567436196,100,11.78,75.43,25.0,1.0
340,contamana,clear sky,PE,1567436196,36,-7.35,-75.01,36.13,0.55
341,hambantota,scattered clouds,LK,1567436196,100,6.12,81.12,27.0,4.1
342,nushki,clear sky,PK,1567436196,11,29.55,66.02,31.63,3.19
343,mamallapuram,broken clouds,IN,1567436196,74,12.63,80.17,31.0,3.6
344,plettenberg bay,clear sky,ZA,1567436197,61,-34.05,23.37,16.43,1.81
345,abu samrah,clear sky,SY,1567436197,21,35.3,37.18,33.03,7.71
346,jumla,light rain,NP,1567436197,96,29.28,82.18,12.83,1.37
347,matara,light rain,BI,1567436197,56,-3.48,29.48,18.23,3.15
348,charters towers,clear sky,AU,1567436197,70,-20.07,146.27,14.63,1.96
349,poya,scattered clouds,NC,1567436197,73,-21.35,165.16,20.73,4.74
350,paramonga,few clouds,PE,1567436197,89,-10.68,-77.82,15.53,4.15
351,pacific grove,clear sky,US,1567436198,72,36.62,-121.92,20.0,5.26
352,khash,clear sky,IR,1567436198,21,28.22,61.21,21.73,4.83
353,puerto del rosario,clear sky,ES,1567436198,65,28.5,-13.86,25.0,5.1
354,lumphat,light rain,KH,1567436198,97,13.5,106.97,23.03,4.27
355,zhigansk,overcast clouds,RU,1567436198,73,66.77,123.37,5.73,4.94
356,hameenlinna,overcast clouds,FI,1567436198,93,61.0,24.46,20.56,4.6
357,guerrero negro,scattered clouds,MX,1567436198,84,27.97,-114.04,21.83,1.26
358,karaton,scattered clouds,ID,1567436199,69,-6.34,106.1,28.0,1.0
359,north platte,overcast clouds,US,1567436199,83,41.12,-100.77,23.0,3.1
360,grand gaube,broken clouds,MU,1567436199,69,-20.01,57.66,23.33,4.1
361,alofi,scattered clouds,NU,1567436199,73,-19.06,-169.92,21.0,3.6
362,wewak,light rain,PG,1567436199,89,-3.55,143.63,24.93,2.07
363,bhagalpur,overcast clouds,IN,1567436199,57,25.25,86.98,33.13,2.68
364,areosa,clear sky,PT,1567436199,48,41.72,-8.86,31.67,4.6
365,kupang,few clouds,ID,1567436199,60,-10.16,123.6,23.0,4.1
366,vila franca do campo,few clouds,PT,1567436200,78,37.72,-25.43,24.0,8.2
367,kieta,light rain,PG,1567436200,79,-6.22,155.63,26.53,2.74
368,karangasem,overcast clouds,ID,1567436200,83,-6.7,108.49,23.73,1.81
369,san rafael,few clouds,AR,1567436200,42,-34.61,-68.33,5.43,10.1
370,sur,broken clouds,OM,1567436200,68,22.57,59.53,27.43,2.33
371,moses lake,clear sky,US,1567436200,71,47.13,-119.28,17.78,2.1
372,saint-francois,clear sky,FR,1567436200,27,46.42,3.91,25.0,5.1
373,baruun-urt,overcast clouds,MN,1567436201,39,46.68,113.28,19.43,2.97
374,oxelosund,light intensity drizzle,SE,1567436201,45,58.67,17.1,19.0,6.7
375,merrill,clear sky,US,1567436201,93,42.03,-121.6,13.89,0.58
376,solnechnyy,few clouds,RU,1567436201,88,50.72,136.64,9.43,2.4
377,jackson,clear sky,US,1567436062,74,32.3,-90.18,27.78,2.1
378,gizo,clear sky,IL,1567436201,55,31.8,34.94,31.0,6.2
379,karema,clear sky,TZ,1567436201,57,-6.82,30.44,27.63,2.82
380,waipawa,scattered clouds,NZ,1567436201,88,-39.94,176.59,6.11,1.26
381,chimbote,overcast clouds,PE,1567436202,91,-9.08,-78.59,15.23,3.85
382,abnub,clear sky,EG,1567436202,29,27.27,31.15,37.0,5.1
383,vostok,clear sky,RU,1567436202,97,46.45,135.83,10.73,1.99
384,vokhma,clear sky,RU,1567436202,73,58.93,46.76,12.63,1.41
385,kampong cham,light rain,KH,1567436202,95,11.99,105.46,24.13,1.71
386,smithers,few clouds,CA,1567436202,100,54.78,-127.17,6.0,1.0
387,tabou,light rain,CI,1567436203,90,4.42,-7.36,23.53,3.63
388,faya,dust,SA,1567436203,64,18.39,42.45,29.0,6.2
389,ust-nera,broken clouds,RU,1567436203,61,64.57,143.24,4.83,1.64
390,codrington,clear sky,AU,1567436203,87,-28.95,153.24,14.0,1.47
391,saint-pierre,clear sky,FR,1567436203,37,48.95,4.24,24.44,5.7
392,biloxi,clear sky,US,1567435907,78,30.4,-88.89,28.89,4.1
393,parauna,broken clouds,ID,1567436203,96,-3.82,122.09,19.03,0.67
394,staraya mayna,broken clouds,RU,1567436203,45,54.61,48.93,17.0,5.0
395,seoul,haze,KR,1567436116,94,37.57,126.98,24.0,0.5
396,mahibadhoo,overcast clouds,MV,1567436204,76,3.78,72.97,28.43,3.62
397,vredendal,clear sky,ZA,1567436204,76,-31.68,18.49,16.43,6.67
398,seymchan,broken clouds,RU,1567436204,76,62.93,152.39,3.33,0.05
399,karatau,clear sky,KZ,1567436204,72,43.18,70.46,18.33,0.89
400,vyshneve,clear sky,UA,1567436204,39,50.39,30.37,29.0,4.0
401,berlevag,shower rain,NO,1567436204,93,70.86,29.09,11.0,4.6
402,campos belos,overcast clouds,BR,1567436204,11,-13.04,-46.77,37.03,2.69
403,sivas,few clouds,TR,1567436204,33,39.75,37.01,22.22,6.7
404,karratha,clear sky,AU,1567436205,61,-20.74,116.85,19.33,2.95
405,ambon,scattered clouds,FR,1567436205,49,47.55,-2.56,23.33,2.6
406,atherton,overcast clouds,AU,1567436205,68,-17.27,145.48,18.0,2.1
407,chegdomyn,clear sky,RU,1567436205,94,51.13,133.04,7.03,0.42
408,la palma,light rain,CO,1567436205,77,5.36,-74.39,25.43,1.4
409,anchorage,light intensity drizzle,US,1567436143,51,61.22,-149.89,16.11,4.6
410,krasnoye,clear sky,RU,1567436205,25,44.87,39.46,31.67,3.0
411,nizhniy ufaley,light rain,RU,1567436206,98,55.91,59.99,7.83,3.72
412,luderitz,overcast clouds,NA,1567436206,10,-26.65,15.16,31.0,4.6
413,karangampel,overcast clouds,ID,1567436206,83,-6.46,108.44,23.73,1.81
414,batagay,overcast clouds,RU,1567436206,56,67.65,134.64,9.33,1.34
415,lingao,moderate rain,CN,1567436206,81,19.91,109.69,28.63,14.15
416,aranos,clear sky,NA,1567436206,2,-24.14,19.11,27.43,2.96
417,kendari,broken clouds,ID,1567436206,94,-3.99,122.52,19.63,0.55
418,pangai,scattered clouds,TO,1567436207,74,-19.8,-174.35,22.13,7.13
419,san vicente,overcast clouds,EC,1567436207,88,-0.59,-80.41,20.0,3.6
420,puerto colombia,scattered clouds,CO,1567436207,74,10.99,-74.96,31.11,3.1
421,koshurnikovo,light rain,RU,1567436207,95,54.3,93.39,9.93,1.21
422,taltal,broken clouds,CL,1567436207,76,-25.41,-70.49,11.93,2.51
423,forth,light rain,AU,1567436207,86,-41.19,146.25,9.44,1.02
424,mehamn,broken clouds,NO,1567436207,93,71.03,27.85,11.0,1.0
425,coffs harbour,clear sky,AU,1567436207,76,-30.3,153.13,14.0,2.6
426,vestmanna,few clouds,FO,1567436208,66,62.16,-7.17,11.0,3.1
427,khani,thunderstorm,GE,1567436208,88,41.96,42.96,22.0,3.6
428,eureka,overcast clouds,US,1567435973,100,40.8,-124.16,15.0,4.6
429,qaqortoq,broken clouds,GL,1567436208,87,60.72,-46.03,8.0,1.5
430,dickinson,overcast clouds,US,1567436164,93,46.88,-102.79,17.22,7.7
431,makakilo city,scattered clouds,US,1567436208,69,21.35,-158.09,27.0,2.1
432,christchurch,clear sky,NZ,1567436208,93,-43.53,172.64,10.56,4.1
433,saldanha,clear sky,PT,1567436208,26,41.42,-6.55,28.43,4.55
434,ravar,clear sky,IR,1567436208,18,31.27,56.81,25.23,3.75
435,singkang,broken clouds,MY,1567436209,83,2.1,102.8,28.0,4.66
436,victor harbor,clear sky,AU,1567436209,82,-35.55,138.62,13.33,3.6
437,madang,scattered clouds,CN,1567436209,91,35.32,102.79,5.23,0.88
438,sao cristovao,scattered clouds,BR,1567436209,66,-11.01,-37.21,29.0,6.7
439,jamame,clear sky,SO,1567436209,63,0.07,42.75,26.73,6.61
440,cap malheureux,broken clouds,MU,1567436209,69,-19.98,57.61,23.33,4.1
441,kamaishi,overcast clouds,JP,1567436209,98,39.28,141.86,14.83,1.51
442,sioux lookout,few clouds,CA,1567436210,81,50.1,-91.92,8.0,1.5
443,mwinilunga,clear sky,ZM,1567436210,15,-11.73,24.43,32.43,3.11
444,sanary-sur-mer,clear sky,FR,1567436137,38,43.12,5.8,31.0,8.7
445,ishigaki,light rain,JP,1567436210,79,24.34,124.16,28.73,7.68
446,vestmannaeyjar,clear sky,IS,1567436210,71,63.44,-20.27,11.0,4.1
447,paamiut,overcast clouds,GL,1567436210,86,61.99,-49.67,6.03,1.38
448,jaisalmer,scattered clouds,IN,1567436210,47,26.91,70.91,35.63,1.18
449,ambulu,overcast clouds,ID,1567436211,88,-8.35,113.61,22.53,3.38
450,mocuba,broken clouds,MZ,1567436211,54,-16.84,36.99,26.43,3.45
451,buraydah,scattered clouds,SA,1567436211,13,26.33,43.97,44.0,3.1
452,sangar,light rain,RU,1567436211,88,63.92,127.47,11.63,1.85
453,provost,light rain,CA,1567436211,81,52.35,-110.26,13.23,4.8
454,tessalit,clear sky,ML,1567436211,12,20.2,1.01,41.03,2.97
455,lompoc,mist,US,1567436211,87,34.64,-120.46,19.0,1.56
456,indramayu,overcast clouds,ID,1567436212,74,-4.05,103.78,21.03,1.55
457,tura,overcast clouds,RU,1567436212,93,64.27,100.22,10.33,1.1
458,lupiro,broken clouds,TZ,1567436212,34,-8.39,36.67,30.73,3.29
459,maceio,broken clouds,BR,1567436212,74,-9.67,-35.74,27.0,7.2
460,grindavik,clear sky,IS,1567436212,66,63.84,-22.43,11.0,6.7
461,bonfim,light rain,GY,1567436212,63,3.36,-59.84,30.33,3.63
462,filadelfia,clear sky,PY,1567436212,22,-22.35,-60.04,24.03,2.74
463,kokemaki,light rain,FI,1567436213,93,61.26,22.36,16.11,4.6
464,camacupa,few clouds,AO,1567436213,16,-12.02,17.48,30.43,2.63
465,flinders,overcast clouds,AU,1567436213,93,-34.58,150.85,12.78,2.6
466,adrar,clear sky,DZ,1567436213,15,27.87,-0.29,41.0,3.6
467,almaznyy,clear sky,RU,1567436213,17,48.03,40.04,29.0,2.0
468,erzin,clear sky,TR,1567436213,46,36.95,36.2,33.0,6.2
469,fukue,broken clouds,JP,1567436213,88,35.03,136.69,26.67,1.5
470,okhotsk,overcast clouds,RU,1567436213,88,59.36,143.24,8.33,0.91
471,belmonte,clear sky,PT,1567436214,38,40.36,-7.35,33.89,3.13
472,mulchen,clear sky,CL,1567436214,66,-37.72,-72.23,9.0,8.7
473,mount gambier,overcast clouds,AU,1567436214,93,-37.83,140.78,10.0,0.5
474,cao bang,light rain,VN,1567436214,95,22.67,106.25,21.63,1.62
475,nova vicosa,overcast clouds,BR,1567436214,67,-17.89,-39.37,26.83,4.17
476,northam,light intensity shower rain,AU,1567436180,93,-31.65,116.67,14.0,4.1
477,kishi,light rain,NG,1567436214,81,9.08,3.85,27.23,2.83
478,poum,thunderstorm,MK,1567436214,44,41.28,20.71,25.0,2.1
479,omboue,broken clouds,GA,1567436215,84,-1.57,9.26,23.83,5.56
480,coquimbo,overcast clouds,CL,1567435944,87,-29.95,-71.34,11.0,2.1
481,tonantins,clear sky,BR,1567436215,49,-2.86,-67.77,33.53,1.44
482,huarmey,broken clouds,PE,1567436215,91,-10.07,-78.15,15.43,4.02
483,hirara,light rain,JP,1567436215,83,24.8,125.28,28.73,7.9
484,amapa,few clouds,HN,1567436215,66,15.09,-87.97,31.11,2.6
485,ugoofaaru,overcast clouds,MV,1567436215,76,5.67,73.0,28.63,2.58
486,bayir,few clouds,TR,1567436216,51,37.27,28.22,32.0,7.7
487,la peca,scattered clouds,PE,1567436216,44,-5.61,-78.44,28.33,0.91
488,anito,overcast clouds,PH,1567436216,84,12.45,125.29,25.23,2.93
489,sovetskiy,broken clouds,RU,1567436216,74,56.76,48.47,12.43,1.76
490,tartagal,clear sky,AR,1567436216,46,-22.52,-63.8,21.0,4.1
491,ludvika,clear sky,SE,1567436216,45,60.15,15.18,18.0,5.7
492,revda,broken clouds,RU,1567436216,66,67.94,34.55,18.03,3.5
493,musoma,scattered clouds,TZ,1567436217,69,-1.5,33.81,26.0,4.6
494,durban,broken clouds,CA,1567436217,70,51.93,-101.44,11.03,2.67
495,baturaja,overcast clouds,ID,1567436217,77,-4.12,104.17,24.33,1.45
496,san lorenzo,clear sky,HN,1567436217,66,13.43,-87.45,29.0,2.1
497,la libertad,clear sky,PE,1567436217,16,-16.38,-71.56,19.0,1.0
498,dehloran,clear sky,IR,1567436217,12,32.69,47.27,33.53,4.47
499,belaya gora,overcast clouds,RU,1567436217,50,68.54,146.19,8.23,2.37
500,sarkand,clear sky,KZ,1567436217,26,45.41,79.91,19.53,2.73
501,price,clear sky,US,1567435963,18,39.6,-110.81,21.67,1.5
502,laguna,scattered clouds,BZ,1567436218,78,16.17,-88.94,28.0,1.69
503,anqing,broken clouds,CN,1567436199,90,30.51,117.04,21.83,2.39
504,erenhot,broken clouds,CN,1567436218,19,43.65,111.97,25.73,3.47
505,ortakoy,few clouds,TR,1567436218,23,38.74,34.04,31.11,3.6
506,kourou,scattered clouds,GF,1567436218,59,5.16,-52.64,32.0,1.5
507,segezha,overcast clouds,RU,1567436218,66,63.74,34.31,20.73,2.61
508,dongsheng,clear sky,CN,1567436218,90,29.72,112.52,20.43,2.24
509,palembang,overcast clouds,ID,1567436219,77,-2.99,104.76,25.33,2.08
510,kropotkin,clear sky,RU,1567436219,23,45.43,40.58,28.89,3.09
511,fereydunshahr,clear sky,IR,1567436219,14,32.94,50.12,15.93,2.45
512,borba,scattered clouds,BR,1567435927,35,-4.39,-59.59,36.43,2.07
513,gat,scattered clouds,SN,1567436219,78,14.69,-16.54,28.0,4.6
514,andros town,moderate rain,BS,1567436219,94,24.73,-77.79,25.0,8.2
515,laukaa,clear sky,FI,1567436219,56,62.42,25.95,22.78,5.7
516,ampanihy,clear sky,MG,1567436219,74,-24.69,44.75,19.43,5.16
517,halifax,broken clouds,CA,1567436023,68,44.65,-63.58,21.67,6.2
518,rosarito,broken clouds,CO,1567436220,51,4.91,-75.23,27.0,3.1
519,buncrana,light intensity shower rain,GB,1567436220,93,55.14,-7.45,15.0,8.7
520,geraldton,broken clouds,CA,1567436220,75,49.72,-86.95,7.0,3.6
521,hegra,few clouds,NO,1567436220,51,63.46,11.11,15.0,1.0
